[{"name":"聚丰德(泉城路店)","avg":"¥85","addr":"泉城路288号","rating":4.6,"hours":"11:00-14:00 / 17:00-21:00","phone":"","lat":36.669,"lng":117.024,"foods":["糖醋黄河鲤鱼","爆炒腰花"]},{"name":"燕喜堂","avg":"¥90","addr":"趵突泉南路19号","rating":4.5,"hours":"11:00-14:00 / 17:00-21:00","phone":"","lat":36.662,"lng":117.001,"foods":["糖醋黄河鲤鱼","奶汤蒲菜","黄河鲤鱼汤"]},{"name":"会仙楼饭庄","avg":"¥80","addr":"泉城路188号","rating":4.4,"hours":"11:00-14:00 / 17:00-20:30","phone":"","lat":36.6695,"lng":117.025,"foods":["糖醋黄河鲤鱼","爆炒腰花"]},{"name":"聚丰德(经十路店)","avg":"¥75","addr":"经十路12888号","rating":4.5,"hours":"11:00-14:00 / 17:00-21:00","phone":"","lat":36.635,"lng":117.05,"foods":["九转大肠"]},{"name":"闫府私房菜","avg":"¥95","addr":"历山路88号","rating":4.6,"hours":"11:00-14:00 / 17:00-21:30","phone":"","lat":36.658,"lng":117.038,"foods":["九转大肠","葱烧海参"]},{"name":"超意兴(遍布全城)","avg":"¥15","addr":"各区域均有","rating":4.3,"hours":"06:00-21:00","phone":"","lat":36.668,"lng":117.026,"foods":["把子肉","鸡腿饭(超意兴)"]},{"name":"老城区把子肉店","avg":"¥18","addr":"芙蓉街附近","rating":4.4,"hours":"10:00-20:00","phone":"","lat":36.6695,"lng":117.0235,"foods":["把子肉"]},{"name":"明湖楼","avg":"¥70","addr":"大明湖南门","rating":4.5,"hours":"11:00-14:00 / 17:00-20:30","phone":"","lat":36.677,"lng":117.02,"foods":["奶汤蒲菜","鸡汤蒲菜","荷叶粥","酸醋藕片","黄河鲤鱼汤","清蒸鲈鱼"]},{"name":"油旋张(泉城路店)","avg":"¥8","addr":"泉城路·排队王","rating":4.7,"hours":"07:00-19:00","phone":"","lat":36.669,"lng":117.0245,"foods":["油旋"]},{"name":"大观园油旋","avg":"¥7","addr":"大观园商场附近","rating":4.4,"hours":"07:30-18:00","phone":"","lat":36.658,"lng":117.015,"foods":["油旋"]},{"name":"草包包子铺(泉城路总店)","avg":"¥35","addr":"泉城路222号","rating":4.6,"hours":"06:30-14:00 / 17:00-20:30","phone":"","lat":36.6692,"lng":117.0238,"foods":["草包包子"]},{"name":"草包包子铺(大观园店)","avg":"¥35","addr":"大观园商场1楼","rating":4.5,"hours":"06:30-14:00 / 17:00-20:00","phone":"","lat":36.6585,"lng":117.0145,"foods":["草包包子"]},{"name":"春江饭店","avg":"¥8","addr":"泉城路附近","rating":4.3,"hours":"06:00-10:00","phone":"","lat":36.6695,"lng":117.0255,"foods":["甜沫"]},{"name":"超意兴","avg":"¥5","addr":"各区域均有","rating":4.2,"hours":"06:00-10:00","phone":"","lat":36.668,"lng":117.026,"foods":["甜沫","四喜丸子"]},{"name":"泉城大酒店","avg":"¥120","addr":"泉城路188号","rating":4.5,"hours":"11:00-14:00 / 17:00-21:30","phone":"","lat":36.6698,"lng":117.0248,"foods":["泉水宴"]},{"name":"舜耕山庄","avg":"¥150","addr":"舜耕路28号","rating":4.6,"hours":"11:00-14:00 / 17:00-21:00","phone":"","lat":36.635,"lng":117.028,"foods":["泉水宴","葱烧海参"]},{"name":"回民小区烧烤一条街","avg":"¥50","addr":"回民小区","rating":4.4,"hours":"17:00-02:00","phone":"","lat":36.663,"lng":117.018,"foods":["济南烧烤"]},{"name":"老金烧烤","avg":"¥55","addr":"经七路","rating":4.5,"hours":"17:00-01:00","phone":"","lat":36.652,"lng":117.02,"foods":["济南烧烤","炉火烧烤"]},{"name":"趵突泉酸奶坊","avg":"¥15","addr":"趵突泉东门","rating":4.4,"hours":"08:00-18:00","phone":"","lat":36.6638,"lng":116.9978,"foods":["泉水老酸奶"]},{"name":"黑虎泉酸奶铺","avg":"¥12","addr":"黑虎泉西路","rating":4.3,"hours":"09:00-19:00","phone":"","lat":36.66,"lng":117.0338,"foods":["泉水老酸奶"]},{"name":"趵突泉茶社","avg":"¥30","addr":"趵突泉公园内","rating":4.5,"hours":"08:00-17:00","phone":"","lat":36.6635,"lng":116.9972,"foods":["泉水泡茶"]},{"name":"黑虎泉茶摊","avg":"¥10","addr":"黑虎泉畔","rating":4.2,"hours":"07:00-18:00","phone":"","lat":36.6602,"lng":117.0342,"foods":["泉水泡茶"]},{"name":"黄家烤肉(章丘总店)","avg":"¥60","addr":"章丘区明水街道","rating":4.6,"hours":"09:00-20:00","phone":"","lat":36.718,"lng":117.528,"foods":["黄家烤肉"]},{"name":"杨铭宇黄焖鸡(总店)","avg":"¥25","addr":"历城区","rating":4.3,"hours":"10:00-21:00","phone":"","lat":36.658,"lng":117.058,"foods":["黄焖鸡"]},{"name":"老济南黄焖鸡","avg":"¥22","addr":"泉城路附近","rating":4.2,"hours":"10:00-21:00","phone":"","lat":36.669,"lng":117.024,"foods":["黄焖鸡"]},{"name":"草包包子铺","avg":"¥15","addr":"泉城路222号","rating":4.6,"hours":"06:30-14:00","phone":"","lat":36.6692,"lng":117.0238,"foods":["济南锅贴"]},{"name":"泉城老鸡汤","avg":"¥15","addr":"老城区","rating":4.3,"hours":"06:00-10:00","phone":"","lat":36.669,"lng":117.024,"foods":["老济南鸡汤","鸡汤面"]},{"name":"回民小区面馆","avg":"¥25","addr":"回民小区","rating":4.3,"hours":"11:00-21:00","phone":"","lat":36.663,"lng":117.018,"foods":["烤肉拌面"]},{"name":"芙蓉街烧饼摊","avg":"¥5","addr":"芙蓉街中段","rating":4.3,"hours":"09:00-21:00","phone":"无","lat":36.6695,"lng":117.023,"foods":["周村烧饼"]},{"name":"济南火车站德州扒鸡店","avg":"¥35","addr":"济南站广场","rating":4.2,"hours":"06:00-22:00","phone":"无","lat":36.668,"lng":117.002,"foods":["德州扒鸡"]},{"name":"大观园老式糕点铺","avg":"¥3","addr":"大观园附近","rating":4.1,"hours":"07:00-18:00","phone":"无","lat":36.6583,"lng":117.0148,"foods":["棉纱包(老面包)"]},{"name":"泉城路早餐摊","avg":"¥8","addr":"泉城路小巷","rating":4.2,"hours":"06:00-10:00","phone":"无","lat":36.6695,"lng":117.025,"foods":["猪肉水煎包","鸡蛋灌饼"]},{"name":"大明湖畔饮品店","avg":"¥15","addr":"大明湖南门","rating":4.2,"hours":"09:00-18:00","phone":"无","lat":36.677,"lng":117.02,"foods":["莲藕茶"]},{"name":"大观园早点铺","avg":"¥6","addr":"大观园附近","rating":4.1,"hours":"05:30-09:30","phone":"无","lat":36.6582,"lng":117.0148,"foods":["老醋粉汤"]},{"name":"回民小区家常菜馆","avg":"¥45","addr":"回民小区","rating":4.3,"hours":"11:00-14:00 / 17:00-21:00","phone":"无","lat":36.663,"lng":117.018,"foods":["炒边肉"]},{"name":"章丘大葱专卖店(济南)","avg":"¥10","addr":"各大超市","rating":4.4,"hours":"08:00-20:00","phone":"无","lat":36.669,"lng":117.024,"foods":["章丘大葱蘸酱"]},{"name":"芙蓉街肉夹馍摊","avg":"¥12","addr":"芙蓉街中段","rating":4.2,"hours":"09:00-21:00","phone":"无","lat":36.6695,"lng":117.023,"foods":["肉夹馍"]},{"name":"聚丰德","avg":"¥68","addr":"泉城路288号","rating":4.6,"hours":"11:00-21:00","phone":"","lat":36.669,"lng":117.024,"foods":["东坡肉","红烧肘子"]},{"name":"会仙楼","avg":"¥78","addr":"泉城路188号","rating":4.4,"hours":"11:00-20:30","phone":"","lat":36.6695,"lng":117.025,"foods":["脆皮鸡"]},{"name":"回民小区龙虾摊","avg":"¥80","addr":"回民小区","rating":4.3,"hours":"18:00-02:00","phone":"","lat":36.663,"lng":117.018,"foods":["麻辣小龙虾"]},{"name":"芙蓉街小摊","avg":"¥5","addr":"芙蓉街","rating":4,"hours":"10:00-22:00","phone":"","lat":36.669,"lng":117.023,"foods":["豆腐皮"]},{"name":"老城区卤味店","avg":"¥25","addr":"老城区","rating":4.2,"hours":"10:00-20:00","phone":"","lat":36.669,"lng":117.024,"foods":["济南卤味"]},{"name":"老字号甜品店","avg":"¥10","addr":"泉城路","rating":4.1,"hours":"09:00-21:00","phone":"","lat":36.669,"lng":117.024,"foods":["济南汤圆"]},{"name":"老字号糕点铺","avg":"¥8","addr":"泉城路","rating":4.2,"hours":"09:00-18:00","phone":"","lat":36.669,"lng":117.024,"foods":["济南粽子"]},{"name":"老城区早点铺","avg":"¥5","addr":"老城区","rating":4.1,"hours":"06:00-09:00","phone":"","lat":36.669,"lng":117.024,"foods":["面筋汤"]}]